{"type": "FeatureCollection", "features": [{"type": "Feature", "geometry": {"type": "Point", "coordinates": [174.690466414891, -36.739446186701]}, "properties": {"name": "Albany", "voltage": 220, "code": "ALB", "country": "NZ"}}, {"type": "Feature", "geometry": {"type": "Point", "coordinates": [176.143035785305, -38.6158816220972]}, "properties": {"name": "Aratiatia", "voltage": 220, "code": "ARA", "country": "NZ"}}, {"type": "Feature", "geometry": {"type": "Point", "coordinates": [175.64305760814, -38.071752154401]}, "properties": {"name": "Arapuni", "voltage": 110, "code": "ARI", "country": "NZ"}}, {"type": "Feature", "geometry": {"type": "Point", "coordinates": [172.622661661296, -43.2624751504703]}, "properties": {"name": "Ashley", "voltage": 66, "code": "ASY", "country": "NZ"}}, {"type": "Feature", "geometry": {"type": "Point", "coordinates": [176.022720801117, -38.392876623533]}, "properties": {"name": "Atiamuri", "voltage": 220, "code": "ATI", "country": "NZ"}}, {"type": "Feature", "geometry": {"type": "Point", "coordinates": [170.354334937641, -44.658443020586]}, "properties": {"name": "Aviemore", "voltage": 220, "code": "AVI", "country": "NZ"}}, {"type": "Feature", "geometry": {"type": "Point", "coordinates": [169.770867903525, -46.2277044005775]}, "properties": {"name": "Balclutha", "voltage": 110, "code": "BAL", "country": "NZ"}}, {"type": "Feature", "geometry": {"type": "Point", "coordinates": [168.841744132543, -46.2244751915298]}, "properties": {"name": "Brydone", "voltage": 110, "code": "BDE", "country": "NZ"}}, {"type": "Feature", "geometry": {"type": "Point", "coordinates": [170.194639409207, -44.5664147870745]}, "properties": {"name": "Benmore AC", "voltage": 350, "code": "BEN", "country": "NZ"}}, {"type": "Feature", "geometry": {"type": "Point", "coordinates": [173.932545330642, -41.4985322594574]}, "properties": {"name": "Blenheim", "voltage": 110, "code": "BLN", "country": "NZ"}}, {"type": "Feature", "geometry": {"type": "Point", "coordinates": [175.000369815938, -37.1887207494628]}, "properties": {"name": "Bombay", "voltage": 220, "code": "BOB", "country": "NZ"}}, {"type": "Feature", "geometry": {"type": "Point", "coordinates": [174.959798041143, -36.9735888204098]}, "properties": {"name": "Brownhill Road", "voltage": 400, "code": "BHL", "country": "NZ"}}, {"type": "Feature", "geometry": {"type": "Point", "coordinates": [170.957643993681, -44.8874167305608]}, "properties": {"name": "Bells Pond", "voltage": 110, "code": "BPD", "country": "NZ"}}, {"type": "Feature", "geometry": {"type": "Point", "coordinates": [175.640549552694, -40.2813249750066]}, "properties": {"name": "Bunnythorpe", "voltage": 220, "code": "BPE", "country": "NZ"}}, {"type": "Feature", "geometry": {"type": "Point", "coordinates": [170.799467253865, -44.8881509892241]}, "properties": {"name": "Black Point", "voltage": 110, "code": "BPT", "country": "NZ"}}, {"type": "Feature", "geometry": {"type": "Point", "coordinates": [174.479885301631, -35.8490321588718]}, "properties": {"name": "Bream Bay", "voltage": 220, "code": "BRB", "country": "NZ"}}, {"type": "Feature", "geometry": {"type": "Point", "coordinates": [175.050640130647, -39.8697114289589]}, "properties": {"name": "Brunswick", "voltage": 220, "code": "BRK", "country": "NZ"}}, {"type": "Feature", "geometry": {"type": "Point", "coordinates": [172.698123520772, -43.5322835709355]}, "properties": {"name": "Bromley", "voltage": 220, "code": "BRY", "country": "NZ"}}, {"type": "Feature", "geometry": {"type": "Point", "coordinates": [169.191024944311, -45.0590015654094]}, "properties": {"name": "Cromwell", "voltage": 110, "code": "CML", "country": "NZ"}}, {"type": "Feature", "geometry": {"type": "Point", "coordinates": [171.52697366059, -43.3637726928018]}, "properties": {"name": "Coleridge", "voltage": 66, "code": "COL", "country": "NZ"}}, {"type": "Feature", "geometry": {"type": "Point", "coordinates": [174.769576650527, -41.300594549992]}, "properties": {"name": "Central Park", "voltage": 110, "code": "CPK", "country": "NZ"}}, {"type": "Feature", "geometry": {"type": "Point", "coordinates": [174.087187572705, -39.081164231719]}, "properties": {"name": "Carrington Street", "voltage": 110, "code": "CST", "country": "NZ"}}, {"type": "Feature", "geometry": {"type": "Point", "coordinates": [171.300928894481, -42.4532092414873]}, "properties": {"name": "Dobson", "voltage": 110, "code": "DOB", "country": "NZ"}}, {"type": "Feature", "geometry": {"type": "Point", "coordinates": [176.828871316464, -37.9872589210314]}, "properties": {"name": "Edgecumbe", "voltage": 220, "code": "EDG", "country": "NZ"}}, {"type": "Feature", "geometry": {"type": "Point", "coordinates": [176.762544516125, -39.5992983541946]}, "properties": {"name": "Fernhill", "voltage": 110, "code": "FHL", "country": "NZ"}}, {"type": "Feature", "geometry": {"type": "Point", "coordinates": [168.740071684215, -45.0103858746997]}, "properties": {"name": "Frankton", "voltage": 110, "code": "FKN", "country": "NZ"}}, {"type": "Feature", "geometry": {"type": "Point", "coordinates": [174.917087061588, -41.2402796604975]}, "properties": {"name": "Gracefield", "voltage": 110, "code": "GFD", "country": "NZ"}}, {"type": "Feature", "geometry": {"type": "Point", "coordinates": [174.731249878416, -37.203334379937]}, "properties": {"name": "Glenbrook", "voltage": 220, "code": "GLN", "country": "NZ"}}, {"type": "Feature", "geometry": {"type": "Point", "coordinates": [175.304950522995, -37.7793951017136]}, "properties": {"name": "Hamilton", "voltage": 220, "code": "HAM", "country": "NZ"}}, {"type": "Feature", "geometry": {"type": "Point", "coordinates": [174.981343613069, -41.1508668000067]}, "properties": {"name": "Haywards AC", "voltage": 350, "code": "HAY", "country": "NZ"}}, {"type": "Feature", "geometry": {"type": "Point", "coordinates": [174.617529287645, -36.8409721729127]}, "properties": {"name": "Henderson", "voltage": 220, "code": "HEN", "country": "NZ"}}, {"type": "Feature", "geometry": {"type": "Point", "coordinates": [174.660086441648, -36.8860120666732]}, "properties": {"name": "Hepburn Road", "voltage": 110, "code": "HEP", "country": "NZ"}}, {"type": "Feature", "geometry": {"type": "Point", "coordinates": [175.765345864269, -37.9196351054278]}, "properties": {"name": "Hinuera", "voltage": 110, "code": "HIN", "country": "NZ"}}, {"type": "Feature", "geometry": {"type": "Point", "coordinates": [168.911652183508, -46.1150913543336]}, "properties": {"name": "Gore", "voltage": 220, "code": "GOR", "country": "NZ"}}, {"type": "Feature", "geometry": {"type": "Point", "coordinates": [175.151828826065, -37.5417405345557]}, "properties": {"name": "Huntly", "voltage": 220, "code": "HLY", "country": "NZ"}}, {"type": "Feature", "geometry": {"type": "Point", "coordinates": [174.762191822817, -36.8452969096825]}, "properties": {"name": "Hobson Street", "voltage": 220, "code": "HOB", "country": "NZ"}}, {"type": "Feature", "geometry": {"type": "Point", "coordinates": [171.981080449601, -43.5456548924265]}, "properties": {"name": "Hororata", "voltage": 66, "code": "HOR", "country": "NZ"}}, {"type": "Feature", "geometry": {"type": "Point", "coordinates": [174.541214004271, -36.7603933046386]}, "properties": {"name": "Huapai", "voltage": 220, "code": "HPI", "country": "NZ"}}, {"type": "Feature", "geometry": {"type": "Point", "coordinates": [175.177950692598, -38.2515706082465]}, "properties": {"name": "Hangatiki", "voltage": 110, "code": "HTI", "country": "NZ"}}, {"type": "Feature", "geometry": {"type": "Point", "coordinates": [174.237032072634, -39.0434291526236]}, "properties": {"name": "Huirangi", "voltage": 110, "code": "HUI", "country": "NZ"}}, {"type": "Feature", "geometry": {"type": "Point", "coordinates": [170.47558197708, -45.8551957168122]}, "properties": {"name": "Halfway Bush", "voltage": 220, "code": "HWB", "country": "NZ"}}, {"type": "Feature", "geometry": {"type": "Point", "coordinates": [171.953547394353, -41.8562739774748]}, "properties": {"name": "Inangahua", "voltage": 110, "code": "IGH", "country": "NZ"}}, {"type": "Feature", "geometry": {"type": "Point", "coordinates": [168.392518110322, -46.392743093686]}, "properties": {"name": "Invercargill", "voltage": 220, "code": "INV", "country": "NZ"}}, {"type": "Feature", "geometry": {"type": "Point", "coordinates": [172.511707102621, -43.5364206560028]}, "properties": {"name": "Islington", "voltage": 220, "code": "ISL", "country": "NZ"}}, {"type": "Feature", "geometry": {"type": "Point", "coordinates": [172.638034397467, -43.3815922687189]}, "properties": {"name": "Kaiapoi", "voltage": 66, "code": "KAI", "country": "NZ"}}, {"type": "Feature", "geometry": {"type": "Point", "coordinates": [176.722881319639, -38.07687527092]}, "properties": {"name": "Kawerau", "voltage": 220, "code": "KAW", "country": "NZ"}}, {"type": "Feature", "geometry": {"type": "Point", "coordinates": [172.873906396579, -41.6734097730656]}, "properties": {"name": "Kikiwa", "voltage": 220, "code": "KIK", "country": "NZ"}}, {"type": "Feature", "geometry": {"type": "Point", "coordinates": [175.883075349237, -38.2724416587401]}, "properties": {"name": "Kinleith", "voltage": 110, "code": "KIN", "country": "NZ"}}, {"type": "Feature", "geometry": {"type": "Point", "coordinates": [175.537461494668, -37.9243493921812]}, "properties": {"name": "Karapiro", "voltage": 110, "code": "KPO", "country": "NZ"}}, {"type": "Feature", "geometry": {"type": "Point", "coordinates": [175.601814786116, -37.1918129538094]}, "properties": {"name": "Kopu", "voltage": 110, "code": "KPU", "country": "NZ"}}, {"type": "Feature", "geometry": {"type": "Point", "coordinates": [174.790548028906, -41.2590170817156]}, "properties": {"name": "Kaiwharawhara", "voltage": 110, "code": "KWA", "country": "NZ"}}, {"type": "Feature", "geometry": {"type": "Point", "coordinates": [173.810609911959, -35.3961981343351]}, "properties": {"name": "Kaikohe", "voltage": 110, "code": "KOE", "country": "NZ"}}, {"type": "Feature", "geometry": {"type": "Point", "coordinates": [170.636499392691, -44.9330528105522]}, "properties": {"name": "Livingstone", "voltage": 220, "code": "LIV", "country": "NZ"}}, {"type": "Feature", "geometry": {"type": "Point", "coordinates": [167.278032220631, -45.5207959974056]}, "properties": {"name": "Manapouri", "voltage": 220, "code": "MAN", "country": "NZ"}}, {"type": "Feature", "geometry": {"type": "Point", "coordinates": [176.814617067829, -38.1134292874162]}, "properties": {"name": "Matahina", "voltage": 110, "code": "MAT", "country": "NZ"}}, {"type": "Feature", "geometry": {"type": "Point", "coordinates": [174.466911683206, -35.8756960062743]}, "properties": {"name": "Marsden", "voltage": 220, "code": "MDN", "country": "NZ"}}, {"type": "Feature", "geometry": {"type": "Point", "coordinates": [175.068549767572, -37.3150217981532]}, "properties": {"name": "Meremere", "voltage": 110, "code": "MER", "country": "NZ"}}, {"type": "Feature", "geometry": {"type": "Point", "coordinates": [175.751861495761, -40.5173200338571]}, "properties": {"name": "Mangamaire", "voltage": 110, "code": "MGM", "country": "NZ"}}, {"type": "Feature", "geometry": {"type": "Point", "coordinates": [175.448941978547, -40.5765750043424]}, "properties": {"name": "Mangahao", "voltage": 110, "code": "MHO", "country": "NZ"}}, {"type": "Feature", "geometry": {"type": "Point", "coordinates": [174.916003433667, -41.2003146478276]}, "properties": {"name": "Melling", "voltage": 110, "code": "MLG", "country": "NZ"}}, {"type": "Feature", "geometry": {"type": "Point", "coordinates": [174.82762695553, -36.9627792715412]}, "properties": {"name": "Mangere", "voltage": 110, "code": "MNG", "country": "NZ"}}, {"type": "Feature", "geometry": {"type": "Point", "coordinates": [174.288222831649, -38.9939189677244]}, "properties": {"name": "Motunui", "voltage": 110, "code": "MNI", "country": "NZ"}}, {"type": "Feature", "geometry": {"type": "Point", "coordinates": [174.207226207887, -35.7663881380906]}, "properties": {"name": "Maungatapere", "voltage": 110, "code": "MPE", "country": "NZ"}}, {"type": "Feature", "geometry": {"type": "Point", "coordinates": [175.743872663552, -38.3525834281888]}, "properties": {"name": "Maraetai", "voltage": 220, "code": "MTI", "country": "NZ"}}, {"type": "Feature", "geometry": {"type": "Point", "coordinates": [176.214121735062, -37.6779016839687]}, "properties": {"name": "Mt Maunganui", "voltage": 110, "code": "MTM", "country": "NZ"}}, {"type": "Feature", "geometry": {"type": "Point", "coordinates": [175.611594576867, -40.9773703703708]}, "properties": {"name": "Masterton", "voltage": 110, "code": "MST", "country": "NZ"}}, {"type": "Feature", "geometry": {"type": "Point", "coordinates": [168.359526133254, -46.3049407875409]}, "properties": {"name": "North Makarewa", "voltage": 220, "code": "NMA", "country": "NZ"}}, {"type": "Feature", "geometry": {"type": "Point", "coordinates": [175.398730768565, -39.1579841150757]}, "properties": {"name": "National Park", "voltage": 110, "code": "NPK", "country": "NZ"}}, {"type": "Feature", "geometry": {"type": "Point", "coordinates": [170.917357237019, -45.0693294072924]}, "properties": {"name": "Oamaru", "voltage": 110, "code": "OAM", "country": "NZ"}}, {"type": "Feature", "geometry": {"type": "Point", "coordinates": [170.029337671999, -44.2658570133698]}, "properties": {"name": "Ohau A", "voltage": 220, "code": "OHA", "country": "NZ"}}, {"type": "Feature", "geometry": {"type": "Point", "coordinates": [176.085946654042, -38.407975903669]}, "properties": {"name": "Ohakuri", "voltage": 220, "code": "OHK", "country": "NZ"}}, {"type": "Feature", "geometry": {"type": "Point", "coordinates": [175.29650290509, -37.4779871138225]}, "properties": {"name": "Ohinewai", "voltage": 220, "code": "OHW", "country": "NZ"}}, {"type": "Feature", "geometry": {"type": "Point", "coordinates": [176.340673056385, -38.0302581565503]}, "properties": {"name": "Okere", "voltage": 110, "code": "OKE", "country": "NZ"}}, {"type": "Feature", "geometry": {"type": "Point", "coordinates": [176.292232243063, -38.5280480958881]}, "properties": {"name": "Ohaaki", "voltage": 220, "code": "OKI", "country": "NZ"}}, {"type": "Feature", "geometry": {"type": "Point", "coordinates": [175.181876743608, -38.7456956231554]}, "properties": {"name": "Ongarue", "voltage": 110, "code": "ONG", "country": "NZ"}}, {"type": "Feature", "geometry": {"type": "Point", "coordinates": [173.927316215564, -39.3925872376463]}, "properties": {"name": "Opunake", "voltage": 110, "code": "OPK", "country": "NZ"}}, {"type": "Feature", "geometry": {"type": "Point", "coordinates": [174.862699006183, -36.955194815775]}, "properties": {"name": "Otahuhu", "voltage": 220, "code": "OTA", "country": "NZ"}}, {"type": "Feature", "geometry": {"type": "Point", "coordinates": [171.564768986514, -42.8317218094869]}, "properties": {"name": "Otira", "voltage": 66, "code": "OTI", "country": "NZ"}}, {"type": "Feature", "geometry": {"type": "Point", "coordinates": [176.323296459428, -38.1299686079822]}, "properties": {"name": "Owhata", "voltage": 110, "code": "OWH", "country": "NZ"}}, {"type": "Feature", "geometry": {"type": "Point", "coordinates": [174.906656710117, -36.9259433536049]}, "properties": {"name": "Pakuranga", "voltage": 220, "code": "PAK", "country": "NZ"}}, {"type": "Feature", "geometry": {"type": "Point", "coordinates": [175.560790381519, -37.6507124020282]}, "properties": {"name": "Piako", "voltage": 110, "code": "PAO", "country": "NZ"}}, {"type": "Feature", "geometry": {"type": "Point", "coordinates": [174.816878498848, -36.9046374987988]}, "properties": {"name": "Penrose", "voltage": 220, "code": "PEN", "country": "NZ"}}, {"type": "Feature", "geometry": {"type": "Point", "coordinates": [175.012308984085, -40.9253789222455]}, "properties": {"name": "Paraparaumu", "voltage": 220, "code": "PRM", "country": "NZ"}}, {"type": "Feature", "geometry": {"type": "Point", "coordinates": [176.04125544944, -38.6298262196692]}, "properties": {"name": "Poihipi", "voltage": 220, "code": "PPI", "country": "NZ"}}, {"type": "Feature", "geometry": {"type": "Point", "coordinates": [176.822084719219, -39.5514812971015]}, "properties": {"name": "Redclyffe", "voltage": 220, "code": "RDF", "country": "NZ"}}, {"type": "Feature", "geometry": {"type": "Point", "coordinates": [174.725738220953, -36.913847394651]}, "properties": {"name": "Mount Roskill", "voltage": 110, "code": "ROS", "country": "NZ"}}, {"type": "Feature", "geometry": {"type": "Point", "coordinates": [176.227053117214, -38.1482678314092]}, "properties": {"name": "Rotorua", "voltage": 110, "code": "ROT", "country": "NZ"}}, {"type": "Feature", "geometry": {"type": "Point", "coordinates": [169.319135490154, -45.4772218924985]}, "properties": {"name": "Roxburgh", "voltage": 220, "code": "ROX", "country": "NZ"}}, {"type": "Feature", "geometry": {"type": "Point", "coordinates": [175.837454320752, -39.1531848069173]}, "properties": {"name": "Rangipo", "voltage": 220, "code": "RPO", "country": "NZ"}}, {"type": "Feature", "geometry": {"type": "Point", "coordinates": [171.844761645029, -42.0825557403676]}, "properties": {"name": "Reefton", "voltage": 110, "code": "RFN", "country": "NZ"}}, {"type": "Feature", "geometry": {"type": "Point", "coordinates": [172.598726432817, -43.3273439536577]}, "properties": {"name": "Southbrook", "voltage": 66, "code": "SBK", "country": "NZ"}}, {"type": "Feature", "geometry": {"type": "Point", "coordinates": [173.243155157162, -41.3151934818933]}, "properties": {"name": "Stoke", "voltage": 220, "code": "STK", "country": "NZ"}}, {"type": "Feature", "geometry": {"type": "Point", "coordinates": [170.507522621625, -45.8907394098441]}, "properties": {"name": "South Dunedin", "voltage": 220, "code": "SDN", "country": "NZ"}}, {"type": "Feature", "geometry": {"type": "Point", "coordinates": [174.320461655912, -39.334357939734]}, "properties": {"name": "Stratford", "voltage": 220, "code": "SFD", "country": "NZ"}}, {"type": "Feature", "geometry": {"type": "Point", "coordinates": [174.683404258253, -36.6236289858472]}, "properties": {"name": "Silverdale", "voltage": 220, "code": "SVL", "country": "NZ"}}, {"type": "Feature", "geometry": {"type": "Point", "coordinates": [174.933642315226, -37.0390080104941]}, "properties": {"name": "Takanini", "voltage": 110, "code": "TAK", "country": "NZ"}}, {"type": "Feature", "geometry": {"type": "Point", "coordinates": [171.230759711062, -44.3726338070168]}, "properties": {"name": "Timaru", "voltage": 220, "code": "TIM", "country": "NZ"}}, {"type": "Feature", "geometry": {"type": "Point", "coordinates": [170.460789916721, -44.013832705938]}, "properties": {"name": "Tekapo A", "voltage": 110, "code": "TKA", "country": "NZ"}}, {"type": "Feature", "geometry": {"type": "Point", "coordinates": [170.211724734036, -44.1251157053877]}, "properties": {"name": "Tekapo B", "voltage": 220, "code": "TKB", "country": "NZ"}}, {"type": "Feature", "geometry": {"type": "Point", "coordinates": [176.130869830401, -37.7277248845064]}, "properties": {"name": "Tauranga", "voltage": 110, "code": "TGA", "country": "NZ"}}, {"type": "Feature", "geometry": {"type": "Point", "coordinates": [174.871607757175, -41.1573234740155]}, "properties": {"name": "Takapu Road", "voltage": 110, "code": "TKR", "country": "NZ"}}, {"type": "Feature", "geometry": {"type": "Point", "coordinates": [170.433448779912, -45.8565607396466]}, "properties": {"name": "Three Mile Hill", "voltage": 220, "code": "TMH", "country": "NZ"}}, {"type": "Feature", "geometry": {"type": "Point", "coordinates": [176.339563368173, -37.8168787162182]}, "properties": {"name": "Te Matai", "voltage": 110, "code": "TMI", "country": "NZ"}}, {"type": "Feature", "geometry": {"type": "Point", "coordinates": [175.326851744222, -38.88916728221]}, "properties": {"name": "Taumarunui", "voltage": 220, "code": "TMN", "country": "NZ"}}, {"type": "Feature", "geometry": {"type": "Point", "coordinates": [175.320176840289, -38.0021422322313]}, "properties": {"name": "Te Awamutu", "voltage": 110, "code": "TMU", "country": "NZ"}}, {"type": "Feature", "geometry": {"type": "Point", "coordinates": [175.572545768014, -39.4654028238697]}, "properties": {"name": "Tangiwai", "voltage": 220, "code": "TNG", "country": "NZ"}}, {"type": "Feature", "geometry": {"type": "Point", "coordinates": [176.159634079146, -38.0738377731308]}, "properties": {"name": "Tarukenga", "voltage": 220, "code": "TRK", "country": "NZ"}}, {"type": "Feature", "geometry": {"type": "Point", "coordinates": [177.151398922224, -38.8053542148106]}, "properties": {"name": "Tuai", "voltage": 110, "code": "TUI", "country": "NZ"}}, {"type": "Feature", "geometry": {"type": "Point", "coordinates": [175.773445951146, -40.3541009209416]}, "properties": {"name": "Tararua Wind Central", "voltage": 220, "code": "TWC", "country": "NZ"}}, {"type": "Feature", "geometry": {"type": "Point", "coordinates": [175.123037525692, -37.7296817929898]}, "properties": {"name": "Te Kowhai", "voltage": 220, "code": "TWH", "country": "NZ"}}, {"type": "Feature", "geometry": {"type": "Point", "coordinates": [168.392617703291, -46.5897629055941]}, "properties": {"name": "Tiwai", "voltage": 220, "code": "TWI", "country": "NZ"}}, {"type": "Feature", "geometry": {"type": "Point", "coordinates": [177.19215251255, -38.0251205054007]}, "properties": {"name": "Waiotahe", "voltage": 110, "code": "WAI", "country": "NZ"}}, {"type": "Feature", "geometry": {"type": "Point", "coordinates": [175.856092620109, -40.315510243038]}, "properties": {"name": "Woodville", "voltage": 110, "code": "WDV", "country": "NZ"}}, {"type": "Feature", "geometry": {"type": "Point", "coordinates": [175.11916852824, -39.938162592352]}, "properties": {"name": "Whanganui", "voltage": 110, "code": "WGN", "country": "NZ"}}, {"type": "Feature", "geometry": {"type": "Point", "coordinates": [176.886767474199, -39.3820619790374]}, "properties": {"name": "Whirinaki", "voltage": 220, "code": "WHI", "country": "NZ"}}, {"type": "Feature", "geometry": {"type": "Point", "coordinates": [175.683159525493, -37.5692169872085]}, "properties": {"name": "Waihou", "voltage": 110, "code": "WHU", "country": "NZ"}}, {"type": "Feature", "geometry": {"type": "Point", "coordinates": [174.75954835334, -41.2585493892607]}, "properties": {"name": "Wilton", "voltage": 220, "code": "WIL", "country": "NZ"}}, {"type": "Feature", "geometry": {"type": "Point", "coordinates": [175.80037418803, -38.4190816050185]}, "properties": {"name": "Whakamaru", "voltage": 220, "code": "WKM", "country": "NZ"}}, {"type": "Feature", "geometry": {"type": "Point", "coordinates": [175.774856951536, -37.4158925220615]}, "properties": {"name": "Waikino", "voltage": 110, "code": "WKO", "country": "NZ"}}, {"type": "Feature", "geometry": {"type": "Point", "coordinates": [170.100401566391, -44.2785418761504]}, "properties": {"name": "Twizel", "voltage": 220, "code": "TWZ", "country": "NZ"}}, {"type": "Feature", "geometry": {"type": "Point", "coordinates": [175.09427627401, -41.0995355942241]}, "properties": {"name": "Upper Hutt", "voltage": 110, "code": "UHT", "country": "NZ"}}, {"type": "Feature", "geometry": {"type": "Point", "coordinates": [171.757004181793, -41.7180965647653]}, "properties": {"name": "Waimangaroa", "voltage": 110, "code": "WMG", "country": "NZ"}}, {"type": "Feature", "geometry": {"type": "Point", "coordinates": [175.683396408149, -38.2916611594744]}, "properties": {"name": "Waipapa", "voltage": 220, "code": "WPA", "country": "NZ"}}, {"type": "Feature", "geometry": {"type": "Point", "coordinates": [172.756187843399, -43.0518903693018]}, "properties": {"name": "Waipara", "voltage": 66, "code": "WPR", "country": "NZ"}}, {"type": "Feature", "geometry": {"type": "Point", "coordinates": [176.105091306213, -38.6258686344621]}, "properties": {"name": "Wairakei", "voltage": 220, "code": "WRK", "country": "NZ"}}, {"type": "Feature", "geometry": {"type": "Point", "coordinates": [170.428899678996, -44.69188034693]}, "properties": {"name": "Waitaki", "voltage": 110, "code": "WTK", "country": "NZ"}}, {"type": "Feature", "geometry": {"type": "Point", "coordinates": [176.881339161984, -39.6062919544723]}, "properties": {"name": "Whakatu", "voltage": 220, "code": "WTU", "country": "NZ"}}, {"type": "Feature", "geometry": {"type": "Point", "coordinates": [174.678806143002, -41.2706175754991]}, "properties": {"name": "West Wind", "voltage": 110, "code": "WWD", "country": "NZ"}}, {"type": "Feature", "geometry": {"type": "Point", "coordinates": [174.746842322072, -36.7803467344773]}, "properties": {"name": "Wairau Road", "voltage": 220, "code": "WRD", "country": "NZ"}}, {"type": "Feature", "geometry": {"type": "Point", "coordinates": [175.793203334505, -38.41302673478]}, "properties": {"name": "Whakamaru North", "voltage": 400, "code": "WHN", "country": "NZ"}}, {"type": "Feature", "geometry": {"type": "Point", "coordinates": [172.084800495448, -43.4552305546176]}, "properties": {"name": "Kimberley", "voltage": 66, "code": "KBY", "country": "NZ"}}, {"type": "Feature", "geometry": {"type": "Point", "coordinates": [176.047895453291, -38.6176230560534]}, "properties": {"name": "Te Mihi", "voltage": 220, "code": "THI", "country": "NZ"}}, {"type": "Feature", "geometry": {"type": "Point", "coordinates": [174.630032210527, -41.294314933257]}, "properties": {"name": "Oteranga Bay", "voltage": 350, "code": "OTB", "country": "NZ"}}, {"type": "Feature", "geometry": {"type": "Point", "coordinates": [175.305686524644, -38.3228913186009]}, "properties": {"name": "Rangitoto Hills Tee", "voltage": 110, "code": "RTO", "country": "NZ"}}, {"type": "Feature", "geometry": {"type": "Point", "coordinates": [175.286290288352, -39.1771384920563]}, "properties": {"name": "Retaruke Tee", "voltage": 110, "code": "RTR", "country": "NZ"}}, {"type": "Feature", "geometry": {"type": "Point", "coordinates": [174.944172986798, -41.1112466570807]}, "properties": {"name": "Judgeford", "voltage": 220, "code": "JFD", "country": "NZ"}}, {"type": "Feature", "geometry": {"type": "Point", "coordinates": [171.107372041213, -44.9225396198581]}, "properties": {"name": "Glenavy", "voltage": 110, "code": "GNY", "country": "NZ"}}, {"type": "Feature", "geometry": {"type": "Point", "coordinates": [172.524311601195, -43.5893103498162]}, "properties": {"name": "Christchurch Tee", "voltage": 220, "code": "CHH", "country": "NZ"}}, {"type": "Feature", "geometry": {"type": "Point", "coordinates": [171.813511136415, -43.5544563324197]}, "properties": {"name": "Brackendale", "voltage": 66, "code": "BKD", "country": "NZ"}}, {"type": "Feature", "geometry": {"type": "Point", "coordinates": [174.103607134834, -39.1167422705206]}, "properties": {"name": "Junction Road", "voltage": 110, "code": "JRD", "country": "NZ"}}]}